{
  "storesBanner": {
    "title": "Nuestros Locales",
    "description": "Descubre la armonía en cada rincón de nuestras cafeterías"
  },
  "storesSection": {
    "stores": [
      {
        "id": 1,
        "codeName": "LH1",
        "name": "Lharmonie Centro",
        "callToAction": "/locales",
        "imageSrc": "/local.png",
        "mediaType": "image",
        "address": "Las Heras 1234, CABA",
        "openTimes": [
          {
            "days": "Lunes a viernes",
            "hours": "11:00hs a 18:00hs"
          },
          {
            "days": "Sabados y Domingos",
            "hours": "9:00hs a 20:00hs"
          }
        ]
      },
      {
        "id": 2,
        "codeName": "LH2",
        "name": "Lharmonie Palermo",
        "callToAction": "/locales",
        "imageSrc": "/local.png",
        "mediaType": "image",
        "address": "Las Heras 1234, CABA",
        "openTimes": [
          {
            "days": "Lunes a viernes",
            "hours": "11:00hs a 18:00hs"
          },
          {
            "days": "Sabados y Domingos",
            "hours": "9:00hs a 20:00hs"
          }
        ]
      },
      {
        "id": 3,
        "codeName": "LH3",
        "name": "Lharmonie Belgrano",
        "callToAction": "/locales",
        "imageSrc": "/local.png",
        "mediaType": "image",
        "address": "Las Heras 1234, CABA",
        "openTimes": [
          {
            "days": "Lunes a viernes",
            "hours": "11:00hs a 18:00hs"
          },
          {
            "days": "Sabados y Domingos",
            "hours": "9:00hs a 20:00hs"
          }
        ]
      },
      {
        "id": 4,
        "codeName": "LH4",
        "name": "Lharmonie Once",
        "callToAction": "/locales",
        "imageSrc": "/local.png",
        "mediaType": "image",
        "address": "Las Heras 1234, CABA",
        "openTimes": [
          {
            "days": "Lunes a viernes",
            "hours": "11:00hs a 18:00hs"
          },
          {
            "days": "Sabados y Domingos",
            "hours": "9:00hs a 20:00hs"
          }
        ]
      }
    ]
  },
  "mapSection": {
    "title": "Direcciones",
    "locations": [
      {
        "title": "LH1",
        "position": { "lat": -34.578674498644325, "lng": -58.40952986441803 },
        "address": "Juan Francisco Seguí 3611, C1425ACC"
      },
      {
        "title": "LH2",
        "position": { "lat": -34.57797363272871, "lng": -58.43847183558195 },
        "address": "Nicaragua 6068, C1414BWN"
      },
      {
        "title": "Casa Lharmonie",
        "position": { "lat": -34.56524973002479, "lng": -58.434563264418024 },
        "address": "Maure 1516, C1426"
      },
      {
        "title": "Lh4",
        "position": { "lat": -34.564818229933095, "lng": -58.44490107790985 },
        "address": "Zabala 1925, C1426DQI"
      }
    ]
  }
}
